{"meta":{"code":200,"requestId":"56af791a498e2babfcf005b8"},"response":{"venues":[{"id":"4bcdefdab6c49c74cf3a9691","name":"Sakaki Sushi","contact":{"phone":"+4532588988","formattedPhone":"+45 32 58 89 88"},"location":{"address":"Amagerbrogade 86","lat":55.660529369061614,"lng":12.605031466913266,"distance":1685,"postalCode":"2300","cc":"DK","city":"København S","state":"Region Hovedstaden","country":"Danmark","formattedAddress":["Amagerbrogade 86","2300 København S","Danmark"]},"categories":[{"id":"4bf58dd8d48988d1d2941735","name":"Sushi Restaurant","pluralName":"Sushi Restaurants","shortName":"Sushi","icon":{"prefix":"https:\/\/ss3.4sqi.net\/img\/categories_v2\/food\/sushi_","suffix":".png"},"primary":true}],"verified":false,"stats":{"checkinsCount":137,"usersCount":95,"tipCount":1},"allowMenuUrlEdit":true,"specials":{"count":0,"items":[]},"hereNow":{"count":0,"summary":"Nobody here","groups":[]},"referralId":"v-1454340378","venueChains":[]},{"id":"4b5739f1f964a520082c28e3","name":"ama'r sushi","contact":{},"location":{"lat":55.658093775945154,"lng":12.608340985242771,"distance":1344,"cc":"DK","country":"Danmark","formattedAddress":["Danmark"]},"categories":[{"id":"4bf58dd8d48988d111941735","name":"Japanese Restaurant","pluralName":"Japanese Restaurants","shortName":"Japanese","icon":{"prefix":"https:\/\/ss3.4sqi.net\/img\/categories_v2\/food\/japanese_","suffix":".png"},"primary":true}],"verified":false,"stats":{"checkinsCount":22,"usersCount":20,"tipCount":1},"allowMenuUrlEdit":true,"specials":{"count":0,"items":[]},"hereNow":{"count":0,"summary":"Nobody here","groups":[]},"referralId":"v-1454340378","venueChains":[]},{"id":"4c92371f029776b097a99c55","name":"Skybar Sticks 'n' Sushi","contact":{"phone":"+4588329595","formattedPhone":"+45 88 32 95 95","twitter":"sticksnsushi"},"location":{"address":"Tivoli Hotel, 12th floor","crossStreet":"Arni Magnussons Gade 2","lat":55.66579831593139,"lng":12.56587028503418,"distance":3986,"postalCode":"1560","cc":"DK","city":"København V","state":"Region Hovedstaden","country":"Danmark","formattedAddress":["Tivoli Hotel, 12th floor (Arni Magnussons Gade 2)","1560 København V","Danmark"]},"categories":[{"id":"4bf58dd8d48988d133951735","name":"Roof Deck","pluralName":"Roof Decks","shortName":"Roof Deck","icon":{"prefix":"https:\/\/ss3.4sqi.net\/img\/categories_v2\/travel\/hotel_roofdeck_","suffix":".png"},"primary":true}],"verified":false,"stats":{"checkinsCount":3377,"usersCount":2136,"tipCount":74},"url":"http:\/\/www.tivolihotel.com\/family-leisure\/restaurants\/sticks-n-sushi\/","allowMenuUrlEdit":true,"specials":{"count":0,"items":[]},"hereNow":{"count":0,"summary":"Nobody here","groups":[]},"referralId":"v-1454340378","venueChains":[]},{"id":"4c7bd8983badb1f7d0085654","name":"Sushi Thai","contact":{"phone":"+4532621525","formattedPhone":"+45 32 62 15 25"},"location":{"address":"Arne Jacobsens Allé 12","crossStreet":"i Field's","lat":55.63021437420106,"lng":12.57840132267387,"distance":3394,"postalCode":"2300","cc":"DK","city":"København S","state":"Region Hovedstaden","country":"Danmark","formattedAddress":["Arne Jacobsens Allé 12 (i Field's)","2300 København S","Danmark"]},"categories":[{"id":"4bf58dd8d48988d142941735","name":"Asian Restaurant","pluralName":"Asian Restaurants","shortName":"Asian","icon":{"prefix":"https:\/\/ss3.4sqi.net\/img\/categories_v2\/food\/asian_","suffix":".png"},"primary":true}],"verified":false,"stats":{"checkinsCount":161,"usersCount":70,"tipCount":8},"url":"http:\/\/www.sushithai.dk","allowMenuUrlEdit":true,"specials":{"count":0,"items":[]},"hereNow":{"count":0,"summary":"Nobody here","groups":[]},"referralId":"v-1454340378","venueChains":[]},{"id":"4ca35ea2554b236a5f112648","name":"Letz Sushi","contact":{"phone":"+4533151918","formattedPhone":"+45 33 15 19 18"},"location":{"address":"Overgaden Neden Vandet 41","lat":55.673502223644356,"lng":12.592208995756552,"distance":3329,"postalCode":"1414","cc":"DK","city":"København K","state":"Region Hovedstaden","country":"Danmark","formattedAddress":["Overgaden Neden Vandet 41","1414 København K","Danmark"]},"categories":[{"id":"4bf58dd8d48988d1d2941735","name":"Sushi Restaurant","pluralName":"Sushi Restaurants","shortName":"Sushi","icon":{"prefix":"https:\/\/ss3.4sqi.net\/img\/categories_v2\/food\/sushi_","suffix":".png"},"primary":true}],"verified":false,"stats":{"checkinsCount":451,"usersCount":277,"tipCount":7},"url":"http:\/\/www.letzsushi.dk\/content\/christianshavn","allowMenuUrlEdit":true,"specials":{"count":0,"items":[]},"hereNow":{"count":0,"summary":"Nobody here","groups":[]},"referralId":"v-1454340378","venueChains":[]},{"id":"4b575e0ef964a520ed3328e3","name":"Sushi Nørregade","contact":{"phone":"+4533127070","formattedPhone":"+45 33 12 70 70"},"location":{"address":"Nørregade 34","lat":55.68192649056644,"lng":12.571070585219156,"distance":4880,"postalCode":"1165","cc":"DK","city":"København K","state":"Region Hovedstaden","country":"Danmark","formattedAddress":["Nørregade 34","1165 København K","Danmark"]},"categories":[{"id":"4bf58dd8d48988d1d2941735","name":"Sushi Restaurant","pluralName":"Sushi Restaurants","shortName":"Sushi","icon":{"prefix":"https:\/\/ss3.4sqi.net\/img\/categories_v2\/food\/sushi_","suffix":".png"},"primary":true}],"verified":false,"stats":{"checkinsCount":580,"usersCount":296,"tipCount":8},"url":"http:\/\/www.sushinorregade.dk","allowMenuUrlEdit":true,"specials":{"count":0,"items":[]},"hereNow":{"count":0,"summary":"Nobody here","groups":[]},"referralId":"v-1454340378","venueChains":[]},{"id":"4ba49926f964a52089a638e3","name":"Sushi King","contact":{},"location":{"address":"Enghavevej 1","lat":55.671146604226706,"lng":12.54590673255998,"distance":5372,"cc":"DK","city":"København","state":"Region Hovedstaden","country":"Danmark","formattedAddress":["Enghavevej 1","København","Danmark"]},"categories":[{"id":"4bf58dd8d48988d1d2941735","name":"Sushi Restaurant","pluralName":"Sushi Restaurants","shortName":"Sushi","icon":{"prefix":"https:\/\/ss3.4sqi.net\/img\/categories_v2\/food\/sushi_","suffix":".png"},"primary":true}],"verified":false,"stats":{"checkinsCount":135,"usersCount":44,"tipCount":4},"allowMenuUrlEdit":true,"specials":{"count":0,"items":[]},"hereNow":{"count":0,"summary":"Nobody here","groups":[]},"referralId":"v-1454340378","venueChains":[]},{"id":"4c64cd4f3f69c9b67cc389d9","name":"Sumo Sushi","contact":{},"location":{"address":"Amagerbrogade 160","lat":55.65442,"lng":12.610634,"distance":943,"postalCode":"2300","cc":"DK","city":"København","state":"Region Hovedstaden","country":"Danmark","formattedAddress":["Amagerbrogade 160","2300 København","Danmark"]},"categories":[{"id":"4bf58dd8d48988d1d2941735","name":"Sushi Restaurant","pluralName":"Sushi Restaurants","shortName":"Sushi","icon":{"prefix":"https:\/\/ss3.4sqi.net\/img\/categories_v2\/food\/sushi_","suffix":".png"},"primary":true}],"verified":false,"stats":{"checkinsCount":55,"usersCount":34,"tipCount":3},"allowMenuUrlEdit":true,"specials":{"count":0,"items":[]},"hereNow":{"count":0,"summary":"Nobody here","groups":[]},"referralId":"v-1454340378","venueChains":[]},{"id":"4b856d6ff964a5202e5d31e3","name":"Sushi & Wok","contact":{"phone":"+4532149999","formattedPhone":"+45 32 14 99 99"},"location":{"address":"H.C. Ørstedsvej 50A","lat":55.68177040344766,"lng":12.549734115600586,"distance":5828,"cc":"DK","city":"Frederiksberg","state":"Region Hovedstaden","country":"Danmark","formattedAddress":["H.C. Ørstedsvej 50A","Frederiksberg","Danmark"]},"categories":[{"id":"4bf58dd8d48988d1d2941735","name":"Sushi Restaurant","pluralName":"Sushi Restaurants","shortName":"Sushi","icon":{"prefix":"https:\/\/ss3.4sqi.net\/img\/categories_v2\/food\/sushi_","suffix":".png"},"primary":true}],"verified":false,"stats":{"checkinsCount":133,"usersCount":62,"tipCount":3},"url":"http:\/\/www.sushiwok.dk","allowMenuUrlEdit":true,"specials":{"count":0,"items":[]},"hereNow":{"count":0,"summary":"Nobody here","groups":[]},"referralId":"v-1454340378","venueChains":[]},{"id":"4bfea1f3daf9c9b61efcf8ef","name":"Z-Sushi","contact":{"phone":"+4535550222","formattedPhone":"+45 35 55 02 22"},"location":{"address":"Østerbrogade 91","lat":55.707855,"lng":12.57744,"distance":7154,"postalCode":"2100","cc":"DK","city":"København Ø","state":"Region Hovedstaden","country":"Danmark","formattedAddress":["Østerbrogade 91","2100 København Ø","Danmark"]},"categories":[{"id":"4bf58dd8d48988d1d2941735","name":"Sushi Restaurant","pluralName":"Sushi Restaurants","shortName":"Sushi","icon":{"prefix":"https:\/\/ss3.4sqi.net\/img\/categories_v2\/food\/sushi_","suffix":".png"},"primary":true}],"verified":false,"stats":{"checkinsCount":328,"usersCount":128,"tipCount":11},"url":"http:\/\/www.z-sushi.dk","allowMenuUrlEdit":true,"specials":{"count":0,"items":[]},"hereNow":{"count":0,"summary":"Nobody here","groups":[]},"referralId":"v-1454340378","venueChains":[]},{"id":"4af31633f964a52086ea21e3","name":"Letz Sushi","contact":{"phone":"+4533211160","formattedPhone":"+45 33 21 11 60"},"location":{"address":"Værnedamsvej 8","lat":55.673514192771044,"lng":12.549972055268439,"distance":5281,"postalCode":"1619","cc":"DK","city":"Frederiksberg","state":"Region Hovedstaden","country":"Danmark","formattedAddress":["Værnedamsvej 8","1619 Frederiksberg","Danmark"]},"categories":[{"id":"4bf58dd8d48988d1d2941735","name":"Sushi Restaurant","pluralName":"Sushi Restaurants","shortName":"Sushi","icon":{"prefix":"https:\/\/ss3.4sqi.net\/img\/categories_v2\/food\/sushi_","suffix":".png"},"primary":true}],"verified":false,"stats":{"checkinsCount":308,"usersCount":152,"tipCount":3},"url":"http:\/\/www.letzsushi.dk","allowMenuUrlEdit":true,"specials":{"count":0,"items":[]},"hereNow":{"count":0,"summary":"Nobody here","groups":[]},"referralId":"v-1454340378","venueChains":[]},{"id":"56290947498ef0022169c57b","name":"Z-sushi","contact":{},"location":{"address":"Amagerbrogade 142","lat":55.656517028808594,"lng":12.609147071838379,"distance":1176,"cc":"DK","city":"København S","country":"Danmark","formattedAddress":["Amagerbrogade 142","København S","Danmark"]},"categories":[{"id":"4bf58dd8d48988d1d2941735","name":"Sushi Restaurant","pluralName":"Sushi Restaurants","shortName":"Sushi","icon":{"prefix":"https:\/\/ss3.4sqi.net\/img\/categories_v2\/food\/sushi_","suffix":".png"},"primary":true}],"verified":false,"stats":{"checkinsCount":3,"usersCount":3,"tipCount":0},"allowMenuUrlEdit":true,"specials":{"count":0,"items":[]},"hereNow":{"count":0,"summary":"Nobody here","groups":[]},"referralId":"v-1454340378","venueChains":[]},{"id":"52b1f286498e3d930f2eceaa","name":"Letz Sushi","contact":{},"location":{"address":"Nørre Farimagsgade 63","lat":55.6850889665159,"lng":12.568346352255118,"distance":5259,"postalCode":"1364","cc":"DK","city":"København K","country":"Danmark","formattedAddress":["Nørre Farimagsgade 63","1364 København K","Danmark"]},"categories":[{"id":"4bf58dd8d48988d1d2941735","name":"Sushi Restaurant","pluralName":"Sushi Restaurants","shortName":"Sushi","icon":{"prefix":"https:\/\/ss3.4sqi.net\/img\/categories_v2\/food\/sushi_","suffix":".png"},"primary":true}],"verified":false,"stats":{"checkinsCount":128,"usersCount":84,"tipCount":3},"url":"http:\/\/www.letzsushi.dk","allowMenuUrlEdit":true,"specials":{"count":0,"items":[]},"hereNow":{"count":0,"summary":"Nobody here","groups":[]},"referralId":"v-1454340378","venueChains":[]},{"id":"54c275ff498edeaa80481961","name":"Bosskok Sushi & Wok","contact":{"phone":"+4593939893","formattedPhone":"+45 93 93 98 93"},"location":{"address":"Amagerbrogade 118","lat":55.658487,"lng":12.607369,"distance":1416,"postalCode":"2300","cc":"DK","city":"København","state":"Region Hovedstaden","country":"Danmark","formattedAddress":["Amagerbrogade 118","2300 København","Danmark"]},"categories":[{"id":"4bf58dd8d48988d1d2941735","name":"Sushi Restaurant","pluralName":"Sushi Restaurants","shortName":"Sushi","icon":{"prefix":"https:\/\/ss3.4sqi.net\/img\/categories_v2\/food\/sushi_","suffix":".png"},"primary":true}],"verified":false,"stats":{"checkinsCount":12,"usersCount":5,"tipCount":1},"allowMenuUrlEdit":true,"specials":{"count":0,"items":[]},"hereNow":{"count":0,"summary":"Nobody here","groups":[]},"referralId":"v-1454340378","venueChains":[]},{"id":"4c6844697963be9a3901cdbc","name":"The Sushi Knife","contact":{},"location":{"lat":55.638236,"lng":12.640619,"distance":1662,"cc":"DK","country":"Danmark","formattedAddress":["Danmark"]},"categories":[{"id":"4bf58dd8d48988d111941735","name":"Japanese Restaurant","pluralName":"Japanese Restaurants","shortName":"Japanese","icon":{"prefix":"https:\/\/ss3.4sqi.net\/img\/categories_v2\/food\/japanese_","suffix":".png"},"primary":true}],"verified":false,"stats":{"checkinsCount":1,"usersCount":1,"tipCount":0},"allowMenuUrlEdit":true,"specials":{"count":0,"items":[]},"hereNow":{"count":0,"summary":"Nobody here","groups":[]},"referralId":"v-1454340378","venueChains":[]},{"id":"4da04a802305a35d2803c9af","name":"Sushi 2500","contact":{"phone":"+4544982500","formattedPhone":"+45 44 98 25 00"},"location":{"address":"Skolegade 19","lat":55.66425125794975,"lng":12.512682705235832,"distance":7054,"postalCode":"2500","cc":"DK","city":"Valby","state":"Region Hovedstaden","country":"Danmark","formattedAddress":["Skolegade 19","2500 Valby","Danmark"]},"categories":[{"id":"4bf58dd8d48988d1d2941735","name":"Sushi Restaurant","pluralName":"Sushi Restaurants","shortName":"Sushi","icon":{"prefix":"https:\/\/ss3.4sqi.net\/img\/categories_v2\/food\/sushi_","suffix":".png"},"primary":true}],"verified":false,"stats":{"checkinsCount":110,"usersCount":64,"tipCount":5},"allowMenuUrlEdit":true,"specials":{"count":0,"items":[]},"hereNow":{"count":0,"summary":"Nobody here","groups":[]},"referralId":"v-1454340378","venueChains":[]},{"id":"4c8272b1d92ea09339714a72","name":"Kingya Sushi","contact":{},"location":{"lat":55.659612,"lng":12.606186,"distance":1560,"cc":"DK","country":"Danmark","formattedAddress":["Danmark"]},"categories":[{"id":"4bf58dd8d48988d1d2941735","name":"Sushi Restaurant","pluralName":"Sushi Restaurants","shortName":"Sushi","icon":{"prefix":"https:\/\/ss3.4sqi.net\/img\/categories_v2\/food\/sushi_","suffix":".png"},"primary":true}],"verified":false,"stats":{"checkinsCount":226,"usersCount":86,"tipCount":3},"allowMenuUrlEdit":true,"specials":{"count":0,"items":[]},"hereNow":{"count":0,"summary":"Nobody here","groups":[]},"referralId":"v-1454340378","venueChains":[]},{"id":"4caf5eeb39458cfa58edf99f","name":"Letz Sushi","contact":{"phone":"+4538411918","formattedPhone":"+45 38 41 19 18"},"location":{"address":"Viktoriagade 6","lat":55.672037,"lng":12.557478,"distance":4795,"postalCode":"1655","cc":"DK","city":"København V","state":"Region Hovedstaden","country":"Danmark","formattedAddress":["Viktoriagade 6","1655 København V","Danmark"]},"categories":[{"id":"4bf58dd8d48988d1d2941735","name":"Sushi Restaurant","pluralName":"Sushi Restaurants","shortName":"Sushi","icon":{"prefix":"https:\/\/ss3.4sqi.net\/img\/categories_v2\/food\/sushi_","suffix":".png"},"primary":true}],"verified":false,"stats":{"checkinsCount":245,"usersCount":151,"tipCount":2},"url":"http:\/\/www.letzsushi.dk","allowMenuUrlEdit":true,"specials":{"count":0,"items":[]},"hereNow":{"count":0,"summary":"Nobody here","groups":[]},"referralId":"v-1454340378","venueChains":[]},{"id":"4b520eb8f964a520a56427e3","name":"Sticks'n'Sushi","contact":{"phone":"+4535383463","formattedPhone":"+45 35 38 34 63","twitter":"sticksnsushi"},"location":{"address":"Øster Farimagsgade 16B","lat":55.68352563949213,"lng":12.584014338220921,"distance":4547,"postalCode":"2100","cc":"DK","city":"København","state":"Region Hovedstaden","country":"Danmark","formattedAddress":["Øster Farimagsgade 16B","2100 København","Danmark"]},"categories":[{"id":"4bf58dd8d48988d1d2941735","name":"Sushi Restaurant","pluralName":"Sushi Restaurants","shortName":"Sushi","icon":{"prefix":"https:\/\/ss3.4sqi.net\/img\/categories_v2\/food\/sushi_","suffix":".png"},"primary":true}],"verified":false,"stats":{"checkinsCount":1241,"usersCount":660,"tipCount":13},"url":"http:\/\/www.sushi.dk","allowMenuUrlEdit":true,"specials":{"count":0,"items":[]},"hereNow":{"count":0,"summary":"Nobody here","groups":[]},"referralId":"v-1454340378","venueChains":[]},{"id":"4db86a8dcda10f31e616f15f","name":"Fresh Sushi","contact":{"phone":"+4532115588","formattedPhone":"+45 32 11 55 88"},"location":{"address":"Bremensgade 77","lat":55.663846,"lng":12.617826,"distance":1714,"postalCode":"2300","cc":"DK","city":"København","state":"Region Hovedstaden","country":"Danmark","formattedAddress":["Bremensgade 77","2300 København","Danmark"]},"categories":[{"id":"4bf58dd8d48988d1d2941735","name":"Sushi Restaurant","pluralName":"Sushi Restaurants","shortName":"Sushi","icon":{"prefix":"https:\/\/ss3.4sqi.net\/img\/categories_v2\/food\/sushi_","suffix":".png"},"primary":true}],"verified":false,"stats":{"checkinsCount":75,"usersCount":51,"tipCount":3},"url":"http:\/\/www.freshsushi.dk","allowMenuUrlEdit":true,"specials":{"count":0,"items":[]},"hereNow":{"count":0,"summary":"Nobody here","groups":[]},"referralId":"v-1454340378","venueChains":[]},{"id":"4b645eb7f964a520e2ad2ae3","name":"David & Sushi","contact":{},"location":{"lat":55.6599655481447,"lng":12.610853747744697,"distance":1433,"cc":"DK","country":"Danmark","formattedAddress":["Danmark"]},"categories":[{"id":"4bf58dd8d48988d1d2941735","name":"Sushi Restaurant","pluralName":"Sushi Restaurants","shortName":"Sushi","icon":{"prefix":"https:\/\/ss3.4sqi.net\/img\/categories_v2\/food\/sushi_","suffix":".png"},"primary":true}],"verified":false,"stats":{"checkinsCount":19,"usersCount":10,"tipCount":2},"allowMenuUrlEdit":true,"specials":{"count":0,"items":[]},"hereNow":{"count":0,"summary":"Nobody here","groups":[]},"referralId":"v-1454340378","venueChains":[]},{"id":"4ebd58fd8b81967ad1e38f25","name":"Ye Sushi","contact":{},"location":{"address":"Skottegården 6","lat":55.63830824819087,"lng":12.635313918015132,"distance":1434,"postalCode":"2770","cc":"DK","city":"Kastrup","state":"Region Hovedstaden","country":"Danmark","formattedAddress":["Skottegården 6","2770 Kastrup","Danmark"]},"categories":[{"id":"4bf58dd8d48988d1d2941735","name":"Sushi Restaurant","pluralName":"Sushi Restaurants","shortName":"Sushi","icon":{"prefix":"https:\/\/ss3.4sqi.net\/img\/categories_v2\/food\/sushi_","suffix":".png"},"primary":true}],"verified":false,"stats":{"checkinsCount":34,"usersCount":18,"tipCount":0},"allowMenuUrlEdit":true,"specials":{"count":0,"items":[]},"hereNow":{"count":0,"summary":"Nobody here","groups":[]},"referralId":"v-1454340378","venueChains":[]},{"id":"4b38e9b7f964a520185225e3","name":"Okinawa Sushi","contact":{"phone":"+4533225658","formattedPhone":"+45 33 22 56 58"},"location":{"address":"Vesterbrogade 107 B","lat":55.67141439272411,"lng":12.544852993822888,"distance":5444,"postalCode":"1620","cc":"DK","city":"København V","state":"Denmark","country":"Danmark","formattedAddress":["Vesterbrogade 107 B","1620 København V","Danmark"]},"categories":[{"id":"4bf58dd8d48988d1d2941735","name":"Sushi Restaurant","pluralName":"Sushi Restaurants","shortName":"Sushi","icon":{"prefix":"https:\/\/ss3.4sqi.net\/img\/categories_v2\/food\/sushi_","suffix":".png"},"primary":true}],"verified":false,"stats":{"checkinsCount":153,"usersCount":51,"tipCount":2},"url":"http:\/\/sushiokinawa.weebly.com","allowMenuUrlEdit":true,"specials":{"count":0,"items":[]},"hereNow":{"count":0,"summary":"Nobody here","groups":[]},"referralId":"v-1454340378","venueChains":[]},{"id":"4bd099ffcaff95212728cff0","name":"Go`sushi By Us","contact":{"phone":"+4535362233","formattedPhone":"+45 35 36 22 33"},"location":{"address":"Nørrebrogade 153","crossStreet":"Nørrebro Rundel","lat":55.694352,"lng":12.54881,"distance":6841,"postalCode":"2200","cc":"DK","city":"København","state":"Region Hovedstaden","country":"Danmark","formattedAddress":["Nørrebrogade 153 (Nørrebro Rundel)","2200 København","Danmark"]},"categories":[{"id":"4bf58dd8d48988d1d2941735","name":"Sushi Restaurant","pluralName":"Sushi Restaurants","shortName":"Sushi","icon":{"prefix":"https:\/\/ss3.4sqi.net\/img\/categories_v2\/food\/sushi_","suffix":".png"},"primary":true}],"verified":false,"stats":{"checkinsCount":107,"usersCount":68,"tipCount":0},"url":"http:\/\/gosushibyus.dk","allowMenuUrlEdit":true,"specials":{"count":0,"items":[]},"hereNow":{"count":0,"summary":"Nobody here","groups":[]},"referralId":"v-1454340378","venueChains":[]},{"id":"54f4a3cb498ef304a8cfcd37","name":"Yo! Sushi","contact":{"phone":"+4532483147","formattedPhone":"+45 32 48 31 47"},"location":{"address":"Terminal 3","crossStreet":"CPH Airport","lat":55.62838953292428,"lng":12.64872011044129,"distance":2823,"postalCode":"2770","cc":"DK","city":"København","state":"Region Hovedstaden","country":"Danmark","formattedAddress":["Terminal 3 (CPH Airport)","2770 Kastrupvejs","Danmark"]},"categories":[{"id":"4bf58dd8d48988d1d2941735","name":"Sushi Restaurant","pluralName":"Sushi Restaurants","shortName":"Sushi","icon":{"prefix":"https:\/\/ss3.4sqi.net\/img\/categories_v2\/food\/sushi_","suffix":".png"},"primary":true}],"verified":false,"stats":{"checkinsCount":118,"usersCount":109,"tipCount":5},"url":"http:\/\/www.yosushi.com\/restaurants\/copenhagen-airport","allowMenuUrlEdit":true,"specials":{"count":0,"items":[]},"hereNow":{"count":0,"summary":"Nobody here","groups":[]},"referralId":"v-1454340378","venueChains":[]},{"id":"4dfa214c1f6e2728c9f199cb","name":"Sushi Placering","contact":{},"location":{"lat":55.66888,"lng":12.606229,"distance":2455,"postalCode":"2300","cc":"DK","city":"København","state":"Region Hovedstaden","country":"Danmark","formattedAddress":["2300 København","Danmark"]},"categories":[{"id":"4bf58dd8d48988d1d2941735","name":"Sushi Restaurant","pluralName":"Sushi Restaurants","shortName":"Sushi","icon":{"prefix":"https:\/\/ss3.4sqi.net\/img\/categories_v2\/food\/sushi_","suffix":".png"},"primary":true}],"verified":false,"stats":{"checkinsCount":2,"usersCount":1,"tipCount":0},"allowMenuUrlEdit":true,"specials":{"count":0,"items":[]},"hereNow":{"count":0,"summary":"Nobody here","groups":[]},"referralId":"v-1454340378","venueChains":[]},{"id":"4d94ab9958caa1438ee4b025","name":"A. Sushi","contact":{},"location":{"address":"Amagerbrogade 20","lat":55.66640401734899,"lng":12.598556996694914,"distance":2452,"postalCode":"2300","cc":"DK","city":"København","state":"Region Hovedstaden","country":"Danmark","formattedAddress":["Amagerbrogade 20","2300 København","Danmark"]},"categories":[{"id":"4bf58dd8d48988d1d2941735","name":"Sushi Restaurant","pluralName":"Sushi Restaurants","shortName":"Sushi","icon":{"prefix":"https:\/\/ss3.4sqi.net\/img\/categories_v2\/food\/sushi_","suffix":".png"},"primary":true}],"verified":false,"stats":{"checkinsCount":27,"usersCount":25,"tipCount":0},"allowMenuUrlEdit":true,"specials":{"count":0,"items":[]},"hereNow":{"count":0,"summary":"Nobody here","groups":[]},"referralId":"v-1454340378","venueChains":[]},{"id":"4c165171a5eb76b03c9dc4b7","name":"Wang Fu & Soya Running Sushi","contact":{},"location":{"address":"Stormgade 35","lat":55.69705601,"lng":12.560014,"distance":6635,"cc":"DK","city":"København","state":"Region Hovedstaden","country":"Danmark","formattedAddress":["Stormgade 35","København","Danmark"]},"categories":[{"id":"4bf58dd8d48988d111941735","name":"Japanese Restaurant","pluralName":"Japanese Restaurants","shortName":"Japanese","icon":{"prefix":"https:\/\/ss3.4sqi.net\/img\/categories_v2\/food\/japanese_","suffix":".png"},"primary":true}],"verified":false,"stats":{"checkinsCount":10,"usersCount":10,"tipCount":1},"allowMenuUrlEdit":true,"specials":{"count":0,"items":[]},"hereNow":{"count":0,"summary":"Nobody here","groups":[]},"referralId":"v-1454340378","venueChains":[]},{"id":"4b5b0478f964a52015df28e3","name":"Jasmin Corner Thai & Sushi","contact":{"phone":"+4535353788","formattedPhone":"+45 35 35 37 88"},"location":{"address":"Falkoner Allé 30","lat":55.68146655393155,"lng":12.53430917561671,"distance":6587,"postalCode":"2000","cc":"DK","city":"Frederiksberg","state":"Region Hovedstaden","country":"Danmark","formattedAddress":["Falkoner Allé 30","2000 Frederiksberg","Danmark"]},"categories":[{"id":"4bf58dd8d48988d149941735","name":"Thai Restaurant","pluralName":"Thai Restaurants","shortName":"Thai","icon":{"prefix":"https:\/\/ss3.4sqi.net\/img\/categories_v2\/food\/thai_","suffix":".png"},"primary":true}],"verified":false,"stats":{"checkinsCount":240,"usersCount":144,"tipCount":3},"url":"http:\/\/www.35353788.dk","allowMenuUrlEdit":true,"specials":{"count":0,"items":[]},"hereNow":{"count":0,"summary":"Nobody here","groups":[]},"referralId":"v-1454340378","venueChains":[]},{"id":"4c07da41708c2d7fd997ca63","name":"Green Sushi 2","contact":{"phone":"+4535850580","formattedPhone":"+45 35 85 05 80"},"location":{"address":"Jægersborggade 39","lat":55.692928,"lng":12.543631,"distance":6948,"postalCode":"2200","cc":"DK","city":"København N","state":"Region Hovedstaden","country":"Danmark","formattedAddress":["Jægersborggade 39","2200 København N","Danmark"]},"categories":[{"id":"4bf58dd8d48988d1d2941735","name":"Sushi Restaurant","pluralName":"Sushi Restaurants","shortName":"Sushi","icon":{"prefix":"https:\/\/ss3.4sqi.net\/img\/categories_v2\/food\/sushi_","suffix":".png"},"primary":true}],"verified":false,"stats":{"checkinsCount":114,"usersCount":75,"tipCount":1},"url":"http:\/\/www.greensushi.dk","allowMenuUrlEdit":true,"specials":{"count":0,"items":[]},"hereNow":{"count":0,"summary":"Nobody here","groups":[]},"referralId":"v-1454340378","venueChains":[]}]}}